10/19/2016 2:01:36 PM FE 1C FA  1  1 21 mavlink_global_position_int_t time_boot_ms 38234 lat 7287 lon -6255 alt -120 relative_alt -120 vx 0 vy 0 vz 0 hdg 32094  Len 36
10/19/2016 2:01:36 PM FE 1C 12  1  1 21 mavlink_global_position_int_t time_boot_ms 38734 lat 7409 lon -6354 alt 110 relative_alt 110 vx 0 vy 0 vz 0 hdg 32082  Len 36
10/19/2016 2:01:37 PM FE 1C 2B  1  1 21 mavlink_global_position_int_t time_boot_ms 39234 lat 7526 lon -6449 alt 30 relative_alt 30 vx 0 vy 0 vz 0 hdg 32074  Len 36
10/19/2016 2:01:37 PM FE 1C 44  1  1 21 mavlink_global_position_int_t time_boot_ms 39734 lat 7654 lon -6554 alt 80 relative_alt 80 vx 0 vy 0 vz 0 hdg 32072  Len 36
10/19/2016 2:01:37 PM FE 1C 5D  1  1 21 mavlink_global_position_int_t time_boot_ms 40234 lat 7751 lon -6633 alt -30 relative_alt -30 vx 0 vy 0 vz 0 hdg 32067  Len 36
10/19/2016 2:01:38 PM FE 1C 75  1  1 21 mavlink_global_position_int_t time_boot_ms 40734 lat 7906 lon -6760 alt 40 relative_alt 40 vx 0 vy 0 vz 0 hdg 32060  Len 36
10/19/2016 2:01:38 PM FE 1C 91  1  1 21 mavlink_global_position_int_t time_boot_ms 41234 lat 8010 lon -6846 alt -20 relative_alt -20 vx 0 vy 0 vz 0 hdg 32052  Len 36
10/19/2016 2:01:39 PM FE 1C AC  1  1 21 mavlink_global_position_int_t time_boot_ms 41734 lat 8115 lon -6933 alt -10 relative_alt -10 vx 0 vy 0 vz 0 hdg 32045  Len 36
10/19/2016 2:01:39 PM FE 1C C6  1  1 21 mavlink_global_position_int_t time_boot_ms 42234 lat 8227 lon -7025 alt 60 relative_alt 60 vx 0 vy 0 vz 0 hdg 32035  Len 36
10/19/2016 2:01:43 PM FE 1C 54  1  1 21 mavlink_global_position_int_t time_boot_ms 42734 lat 8390 lon -7160 alt -40 relative_alt -40 vx 0 vy 0 vz 0 hdg 32025  Len 36
10/19/2016 2:01:45 PM FE 1C DA  1  1 21 mavlink_global_position_int_t time_boot_ms 45114 lat 8983 lon -7657 alt -60 relative_alt -60 vx 0 vy 0 vz 0 hdg 31975  Len 36
10/19/2016 2:01:47 PM FE 1C 2A  1  1 21 mavlink_global_position_int_t time_boot_ms 46734 lat 9381 lon -7995 alt -40 relative_alt -40 vx 0 vy 0 vz 0 hdg 31953  Len 36
10/19/2016 2:01:49 PM FE 1C 9B  1  1 21 mavlink_global_position_int_t time_boot_ms 48855 lat 9871 lon -8415 alt -70 relative_alt -70 vx 0 vy 0 vz 0 hdg 31924  Len 36
10/19/2016 2:01:51 PM FE 1C  6  1  1 21 mavlink_global_position_int_t time_boot_ms 51214 lat 10443 lon -8911 alt -230 relative_alt -229 vx 0 vy 0 vz 0 hdg 31895  Len 36
10/19/2016 2:01:53 PM FE 1C 69  1  1 21 mavlink_global_position_int_t time_boot_ms 53934 lat 11134 lon -9515 alt -40 relative_alt -40 vx 0 vy 0 vz 0 hdg 31871  Len 36
10/19/2016 2:01:55 PM FE 1C CA  1  1 21 mavlink_global_position_int_t time_boot_ms 56797 lat 334677355 lon -887625798 alt 82820 relative_alt 30 vx 4 vy -1 vz 2 hdg 31848  Len 36
10/19/2016 2:01:56 PM FE 1C E2  1  1 21 mavlink_global_position_int_t time_boot_ms 58776 lat 334677346 lon -887625796 alt 82440 relative_alt 49 vx 1 vy -3 vz 7 hdg 31819  Len 36
10/19/2016 2:01:58 PM FE 1C FB  1  1 21 mavlink_global_position_int_t time_boot_ms 60797 lat 334677344 lon -887625797 alt 81990 relative_alt 60 vx -6 vy -3 vz 0 hdg 31797  Len 36
10/19/2016 2:02:00 PM FE 1C 14  1  1 21 mavlink_global_position_int_t time_boot_ms 62796 lat 334677344 lon -887625809 alt 81810 relative_alt -60 vx -2 vy -1 vz 9 hdg 31777  Len 36
10/19/2016 2:02:02 PM FE 1C 30  1  1 21 mavlink_global_position_int_t time_boot_ms 64576 lat 334677354 lon -887625814 alt 81910 relative_alt -30 vx 1 vy -1 vz 4 hdg 31769  Len 36
10/19/2016 2:02:03 PM FE 1C 49  1  1 21 mavlink_global_position_int_t time_boot_ms 66397 lat 334677361 lon -887625818 alt 82000 relative_alt -20 vx 0 vy -4 vz 4 hdg 31760  Len 36
10/19/2016 2:02:05 PM FE 1C 61  1  1 21 mavlink_global_position_int_t time_boot_ms 67796 lat 334677362 lon -887625820 alt 81960 relative_alt -149 vx -1 vy 1 vz 7 hdg 31754  Len 36
10/19/2016 2:02:06 PM FE 1C 7B  1  1 21 mavlink_global_position_int_t time_boot_ms 69397 lat 334677360 lon -887625816 alt 82170 relative_alt 120 vx -2 vy 1 vz 7 hdg 31750  Len 36
10/19/2016 2:02:08 PM FE 1C 97  1  1 21 mavlink_global_position_int_t time_boot_ms 70776 lat 334677363 lon -887625811 alt 81980 relative_alt 49 vx 2 vy -1 vz 1 hdg 31748  Len 36
10/19/2016 2:02:09 PM FE 1C B0  1  1 21 mavlink_global_position_int_t time_boot_ms 72197 lat 334677361 lon -887625808 alt 81810 relative_alt -89 vx 2 vy 0 vz 4 hdg 31744  Len 36
10/19/2016 2:02:11 PM FE 1C C8  1  1 21 mavlink_global_position_int_t time_boot_ms 73376 lat 334677360 lon -887625806 alt 81820 relative_alt -60 vx 3 vy -3 vz -1 hdg 31745  Len 36
10/19/2016 2:02:12 PM FE 1C E3  1  1 21 mavlink_global_position_int_t time_boot_ms 74597 lat 334677359 lon -887625806 alt 81830 relative_alt -40 vx 6 vy -2 vz 8 hdg 31748  Len 36
10/19/2016 2:02:13 PM FE 1C FB  1  1 21 mavlink_global_position_int_t time_boot_ms 75596 lat 334677360 lon -887625806 alt 81970 relative_alt 30 vx -1 vy 0 vz 4 hdg 31748  Len 36
10/19/2016 2:02:14 PM FE 1C 17  1  1 21 mavlink_global_position_int_t time_boot_ms 76596 lat 334677359 lon -887625806 alt 82030 relative_alt 40 vx -2 vy 1 vz 4 hdg 31749  Len 36
10/19/2016 2:02:15 PM FE 1C 2F  1  1 21 mavlink_global_position_int_t time_boot_ms 77376 lat 334677359 lon -887625805 alt 81910 relative_alt -89 vx -1 vy 0 vz 4 hdg 31752  Len 36
10/19/2016 2:02:15 PM FE 1C 4A  1  1 21 mavlink_global_position_int_t time_boot_ms 78396 lat 334677359 lon -887625805 alt 82130 relative_alt 130 vx -1 vy 3 vz 3 hdg 31753  Len 36
10/19/2016 2:02:16 PM FE 1C 65  1  1 21 mavlink_global_position_int_t time_boot_ms 78997 lat 334677361 lon -887625804 alt 82220 relative_alt 199 vx 0 vy 0 vz 12 hdg 31752  Len 36
10/19/2016 2:02:17 PM FE 1C 7F  1  1 21 mavlink_global_position_int_t time_boot_ms 79796 lat 334677363 lon -887625804 alt 82210 relative_alt 179 vx -2 vy -1 vz 8 hdg 31754  Len 36
10/19/2016 2:02:18 PM FE 1C 9A  1  1 21 mavlink_global_position_int_t time_boot_ms 80396 lat 334677362 lon -887625804 alt 82160 relative_alt 149 vx -4 vy -1 vz 9 hdg 31755  Len 36
10/19/2016 2:02:18 PM FE 1C B6  1  1 21 mavlink_global_position_int_t time_boot_ms 81196 lat 334677363 lon -887625805 alt 82100 relative_alt 70 vx -7 vy 0 vz 3 hdg 31756  Len 36
10/19/2016 2:02:19 PM FE 1C D0  1  1 21 mavlink_global_position_int_t time_boot_ms 81796 lat 334677362 lon -887625805 alt 81890 relative_alt -130 vx 2 vy -2 vz 11 hdg 31759  Len 36
10/19/2016 2:02:19 PM FE 1C EE  1  1 21 mavlink_global_position_int_t time_boot_ms 82396 lat 334677364 lon -887625807 alt 81940 relative_alt -89 vx 0 vy -1 vz 4 hdg 31757  Len 36
10/19/2016 2:02:20 PM FE 1C  9  1  1 21 mavlink_global_position_int_t time_boot_ms 82996 lat 334677363 lon -887625808 alt 81990 relative_alt -60 vx 2 vy 1 vz 6 hdg 31776  Len 36
10/19/2016 2:02:21 PM FE 1C 24  1  1 21 mavlink_global_position_int_t time_boot_ms 83596 lat 334677362 lon -887625807 alt 82040 relative_alt -60 vx -7 vy 0 vz 7 hdg 31773  Len 36
10/19/2016 2:02:21 PM FE 1C 43  1  1 21 mavlink_global_position_int_t time_boot_ms 84196 lat 334677362 lon -887625806 alt 82100 relative_alt -49 vx 7 vy 2 vz -2 hdg 31767  Len 36
10/19/2016 2:02:22 PM FE 1C 61  1  1 21 mavlink_global_position_int_t time_boot_ms 84596 lat 334677364 lon -887625804 alt 82160 relative_alt -20 vx 3 vy 1 vz 0 hdg 31762  Len 36
10/19/2016 2:02:22 PM FE 1C 7E  1  1 21 mavlink_global_position_int_t time_boot_ms 85197 lat 334677369 lon -887625802 alt 82190 relative_alt -20 vx -2 vy -1 vz 9 hdg 31758  Len 36
10/19/2016 2:02:23 PM FE 1C 9C  1  1 21 mavlink_global_position_int_t time_boot_ms 85797 lat 334677374 lon -887625801 alt 82200 relative_alt 0 vx 4 vy 1 vz 3 hdg 31753  Len 36
10/19/2016 2:02:23 PM FE 1C B8  1  1 21 mavlink_global_position_int_t time_boot_ms 86376 lat 334677379 lon -887625799 alt 82210 relative_alt 20 vx -2 vy 3 vz 3 hdg 31749  Len 36
10/19/2016 2:02:24 PM FE 1C D7  1  1 21 mavlink_global_position_int_t time_boot_ms 86996 lat 334677384 lon -887625797 alt 82220 relative_alt 30 vx -1 vy -2 vz 7 hdg 31745  Len 36
10/19/2016 2:02:25 PM FE 1C F2  1  1 21 mavlink_global_position_int_t time_boot_ms 87397 lat 334677388 lon -887625796 alt 82230 relative_alt 20 vx -4 vy 0 vz 2 hdg 31740  Len 36
10/19/2016 2:02:25 PM FE 1C 11  1  1 21 mavlink_global_position_int_t time_boot_ms 87996 lat 334677393 lon -887625795 alt 82190 relative_alt -30 vx -6 vy 2 vz 2 hdg 31736  Len 36
10/19/2016 2:02:26 PM FE 1C 2C  1  1 21 mavlink_global_position_int_t time_boot_ms 88597 lat 334677396 lon -887625794 alt 82200 relative_alt -40 vx -3 vy 4 vz 9 hdg 31731  Len 36
10/19/2016 2:02:26 PM FE 1C 4C  1  1 21 mavlink_global_position_int_t time_boot_ms 89176 lat 334677398 lon -887625794 alt 82240 relative_alt -20 vx 3 vy -6 vz 6 hdg 31728  Len 36
10/19/2016 2:02:27 PM FE 1C 67  1  1 21 mavlink_global_position_int_t time_boot_ms 89796 lat 334677402 lon -887625795 alt 82250 relative_alt -10 vx -4 vy -1 vz 4 hdg 31724  Len 36
10/19/2016 2:02:27 PM FE 1C 86  1  1 21 mavlink_global_position_int_t time_boot_ms 90196 lat 334677403 lon -887625796 alt 82230 relative_alt -30 vx -1 vy -3 vz 2 hdg 31722  Len 36
10/19/2016 2:02:31 PM FE 1C B3  1  1 21 mavlink_global_position_int_t time_boot_ms 93425 lat 334677355 lon -887625800 alt 82150 relative_alt -40 vx 3 vy -1 vz -1 hdg 31719  Len 36
10/19/2016 2:02:31 PM FE 1C D2  1  1 21 mavlink_global_position_int_t time_boot_ms 93984 lat 334677357 lon -887625798 alt 82170 relative_alt -10 vx -7 vy 2 vz 8 hdg 31719  Len 36
10/19/2016 2:02:31 PM FE 1C F0  1  1 21 mavlink_global_position_int_t time_boot_ms 94382 lat 334677363 lon -887625795 alt 82130 relative_alt -30 vx 0 vy -4 vz -1 hdg 31719  Len 36
10/19/2016 2:02:32 PM FE 1C  F  1  1 21 mavlink_global_position_int_t time_boot_ms 94984 lat 334677370 lon -887625794 alt 82160 relative_alt -10 vx 2 vy 1 vz 9 hdg 31719  Len 36
10/19/2016 2:02:33 PM FE 1C 2D  1  1 21 mavlink_global_position_int_t time_boot_ms 95384 lat 334677377 lon -887625791 alt 82150 relative_alt -20 vx 1 vy -1 vz 4 hdg 31718  Len 36
10/19/2016 2:02:33 PM FE 1C 4C  1  1 21 mavlink_global_position_int_t time_boot_ms 95984 lat 334677383 lon -887625789 alt 82150 relative_alt -20 vx 0 vy -2 vz 4 hdg 31718  Len 36
10/19/2016 2:02:34 PM FE 1C 6A  1  1 21 mavlink_global_position_int_t time_boot_ms 96384 lat 334677388 lon -887625788 alt 82180 relative_alt 10 vx 3 vy 0 vz 2 hdg 31717  Len 36
10/19/2016 2:02:34 PM FE 1C 89  1  1 21 mavlink_global_position_int_t time_boot_ms 96983 lat 334677391 lon -887625786 alt 82200 relative_alt 20 vx 7 vy 3 vz 9 hdg 31717  Len 36
10/19/2016 2:02:35 PM FE 1C AA  1  1 21 mavlink_global_position_int_t time_boot_ms 97383 lat 334677392 lon -887625785 alt 82230 relative_alt 40 vx -4 vy 7 vz 7 hdg 31717  Len 36
10/19/2016 2:02:35 PM FE 1C C9  1  1 21 mavlink_global_position_int_t time_boot_ms 97983 lat 334677391 lon -887625784 alt 82240 relative_alt 40 vx -2 vy 2 vz 12 hdg 31716  Len 36
10/19/2016 2:02:36 PM FE 1C E7  1  1 21 mavlink_global_position_int_t time_boot_ms 98384 lat 334677389 lon -887625782 alt 82260 relative_alt 40 vx 6 vy 1 vz 17 hdg 31714  Len 36
10/19/2016 2:02:36 PM FE 1C  6  1  1 21 mavlink_global_position_int_t time_boot_ms 98984 lat 334677386 lon -887625781 alt 82240 relative_alt 40 vx 0 vy 1 vz 0 hdg 31713  Len 36
10/19/2016 2:02:37 PM FE 1C 25  1  1 21 mavlink_global_position_int_t time_boot_ms 99383 lat 334677384 lon -887625780 alt 82180 relative_alt 0 vx 4 vy 1 vz 3 hdg 31712  Len 36
10/19/2016 2:02:38 PM FE 1C 44  1  1 21 mavlink_global_position_int_t time_boot_ms 99984 lat 334677380 lon -887625779 alt 82160 relative_alt -10 vx -1 vy 1 vz 4 hdg 31711  Len 36
10/19/2016 2:02:38 PM FE 1C 60  1  1 21 mavlink_global_position_int_t time_boot_ms 100604 lat 334677377 lon -887625779 alt 82180 relative_alt 10 vx -2 vy -2 vz 7 hdg 31710  Len 36
10/19/2016 2:02:39 PM FE 1C 7E  1  1 21 mavlink_global_position_int_t time_boot_ms 100983 lat 334677375 lon -887625778 alt 82200 relative_alt 20 vx -2 vy 1 vz 4 hdg 31709  Len 36
10/19/2016 2:02:39 PM FE 1C 9A  1  1 21 mavlink_global_position_int_t time_boot_ms 101584 lat 334677372 lon -887625778 alt 82210 relative_alt 30 vx 4 vy 2 vz 4 hdg 31707  Len 36
10/19/2016 2:02:40 PM FE 1C B5  1  1 21 mavlink_global_position_int_t time_boot_ms 102183 lat 334677369 lon -887625779 alt 82200 relative_alt 20 vx -4 vy 2 vz 3 hdg 31707  Len 36
10/19/2016 2:02:40 PM FE 1C D1  1  1 21 mavlink_global_position_int_t time_boot_ms 102983 lat 334677366 lon -887625780 alt 82190 relative_alt 10 vx -4 vy -1 vz 2 hdg 31706  Len 36
10/19/2016 2:02:41 PM FE 1C F1  1  1 21 mavlink_global_position_int_t time_boot_ms 103584 lat 334677363 lon -887625781 alt 82180 relative_alt -30 vx -3 vy 2 vz 13 hdg 31705  Len 36
10/19/2016 2:02:41 PM FE 1C  C  1  1 21 mavlink_global_position_int_t time_boot_ms 104183 lat 334677361 lon -887625782 alt 82250 relative_alt 30 vx -4 vy 2 vz 4 hdg 31705  Len 36
10/19/2016 2:02:42 PM FE 1C 28  1  1 21 mavlink_global_position_int_t time_boot_ms 104784 lat 334677358 lon -887625782 alt 82240 relative_alt 10 vx 0 vy 2 vz 4 hdg 31705  Len 36
10/19/2016 2:02:42 PM FE 1C 43  1  1 21 mavlink_global_position_int_t time_boot_ms 105384 lat 334677355 lon -887625783 alt 82260 relative_alt 20 vx -7 vy 0 vz -4 hdg 31703  Len 36
10/19/2016 2:02:43 PM FE 1C 62  1  1 21 mavlink_global_position_int_t time_boot_ms 105983 lat 334677351 lon -887625783 alt 82240 relative_alt 20 vx 4 vy -2 vz 3 hdg 31700  Len 36
10/19/2016 2:02:44 PM FE 1C 80  1  1 21 mavlink_global_position_int_t time_boot_ms 106383 lat 334677350 lon -887625785 alt 82220 relative_alt -10 vx -3 vy 1 vz 1 hdg 31702  Len 36
10/19/2016 2:02:44 PM FE 1C 9C  1  1 21 mavlink_global_position_int_t time_boot_ms 106984 lat 334677347 lon -887625786 alt 82260 relative_alt 10 vx 1 vy 4 vz 4 hdg 31703  Len 36
10/19/2016 2:02:45 PM FE 1C BB  1  1 21 mavlink_global_position_int_t time_boot_ms 107584 lat 334677345 lon -887625786 alt 82250 relative_alt 20 vx -6 vy 0 vz -2 hdg 31704  Len 36
10/19/2016 2:02:45 PM FE 1C DA  1  1 21 mavlink_global_position_int_t time_boot_ms 107983 lat 334677342 lon -887625787 alt 82230 relative_alt 10 vx -2 vy 4 vz 11 hdg 31705  Len 36
10/19/2016 2:02:46 PM FE 1C FB  1  1 21 mavlink_global_position_int_t time_boot_ms 108583 lat 334677339 lon -887625786 alt 82190 relative_alt 0 vx -4 vy 3 vz 4 hdg 31705  Len 36
10/19/2016 2:02:46 PM FE 1C 1A  1  1 21 mavlink_global_position_int_t time_boot_ms 108984 lat 334677336 lon -887625785 alt 82150 relative_alt -20 vx 1 vy -2 vz 4 hdg 31705  Len 36
10/19/2016 2:02:47 PM FE 1C 38  1  1 21 mavlink_global_position_int_t time_boot_ms 109583 lat 334677334 lon -887625785 alt 82120 relative_alt 0 vx 3 vy -4 vz -1 hdg 31703  Len 36
10/19/2016 2:02:48 PM FE 1C 54  1  1 21 mavlink_global_position_int_t time_boot_ms 109983 lat 334677332 lon -887625785 alt 82070 relative_alt -10 vx 3 vy -2 vz 2 hdg 31704  Len 36
10/19/2016 2:02:48 PM FE 1C 73  1  1 21 mavlink_global_position_int_t time_boot_ms 110584 lat 334677331 lon -887625785 alt 82020 relative_alt 10 vx -8 vy 2 vz 2 hdg 31703  Len 36
10/19/2016 2:02:49 PM FE 1C 8F  1  1 21 mavlink_global_position_int_t time_boot_ms 111184 lat 334677327 lon -887625784 alt 82000 relative_alt -10 vx -6 vy 2 vz 19 hdg 31732  Len 36
10/19/2016 2:02:49 PM FE 1C AE  1  1 21 mavlink_global_position_int_t time_boot_ms 111784 lat 334677325 lon -887625783 alt 82020 relative_alt -10 vx 2 vy 3 vz 12 hdg 31742  Len 36
10/19/2016 2:02:50 PM FE 1C C9  1  1 21 mavlink_global_position_int_t time_boot_ms 112383 lat 334677322 lon -887625781 alt 81990 relative_alt -10 vx 1 vy 1 vz -3 hdg 31789  Len 36
10/19/2016 2:02:50 PM FE 1C E8  1  1 21 mavlink_global_position_int_t time_boot_ms 112984 lat 334677322 lon -887625782 alt 81940 relative_alt -20 vx -3 vy 0 vz 7 hdg 31768  Len 36
10/19/2016 2:02:51 PM FE 1C  3  1  1 21 mavlink_global_position_int_t time_boot_ms 113384 lat 334677319 lon -887625782 alt 81910 relative_alt -40 vx 1 vy 0 vz 4 hdg 31769  Len 36
10/19/2016 2:02:51 PM FE 1C 1F  1  1 21 mavlink_global_position_int_t time_boot_ms 113984 lat 334677317 lon -887625780 alt 81960 relative_alt -10 vx -1 vy 2 vz 11 hdg 31767  Len 36
10/19/2016 2:02:52 PM FE 1C 3E  1  1 21 mavlink_global_position_int_t time_boot_ms 114584 lat 334677316 lon -887625778 alt 82000 relative_alt 20 vx -1 vy -6 vz 4 hdg 31765  Len 36
10/19/2016 2:02:52 PM FE 1C 5D  1  1 21 mavlink_global_position_int_t time_boot_ms 115204 lat 334677314 lon -887625779 alt 82030 relative_alt 30 vx 1 vy 0 vz 7 hdg 31763  Len 36
10/19/2016 2:02:53 PM FE 1C 79  1  1 21 mavlink_global_position_int_t time_boot_ms 115584 lat 334677312 lon -887625778 alt 82010 relative_alt 10 vx -1 vy -3 vz 0 hdg 31762  Len 36
10/19/2016 2:02:54 PM FE 1C 97  1  1 21 mavlink_global_position_int_t time_boot_ms 116183 lat 334677311 lon -887625779 alt 81960 relative_alt -40 vx -2 vy -4 vz -1 hdg 31760  Len 36
10/19/2016 2:02:54 PM FE 1C B6  1  1 21 mavlink_global_position_int_t time_boot_ms 116784 lat 334677311 lon -887625781 alt 81960 relative_alt -20 vx 2 vy -2 vz 2 hdg 31757  Len 36
10/19/2016 2:02:55 PM FE 1C D4  1  1 21 mavlink_global_position_int_t time_boot_ms 117383 lat 334677312 lon -887625783 alt 81950 relative_alt 0 vx 0 vy 0 vz 13 hdg 31756  Len 36
10/19/2016 2:02:55 PM FE 1C F0  1  1 21 mavlink_global_position_int_t time_boot_ms 117784 lat 334677312 lon -887625785 alt 81950 relative_alt 0 vx 2 vy 0 vz 9 hdg 31755  Len 36
10/19/2016 2:02:56 PM FE 1C  E  1  1 21 mavlink_global_position_int_t time_boot_ms 118384 lat 334677312 lon -887625786 alt 81930 relative_alt 10 vx 0 vy 0 vz 4 hdg 31754  Len 36
10/19/2016 2:02:57 PM FE 1C 2B  1  1 21 mavlink_global_position_int_t time_boot_ms 118984 lat 334677314 lon -887625787 alt 81880 relative_alt -30 vx 1 vy 1 vz 9 hdg 31754  Len 36
10/19/2016 2:02:57 PM FE 1C 49  1  1 21 mavlink_global_position_int_t time_boot_ms 119583 lat 334677316 lon -887625789 alt 81900 relative_alt 30 vx -1 vy 0 vz 3 hdg 31751  Len 36
10/19/2016 2:02:58 PM FE 1C 65  1  1 21 mavlink_global_position_int_t time_boot_ms 119984 lat 334677317 lon -887625790 alt 81860 relative_alt 20 vx -3 vy 2 vz 3 hdg 31752  Len 36
10/19/2016 2:02:58 PM FE 1C 84  1  1 21 mavlink_global_position_int_t time_boot_ms 120584 lat 334677319 lon -887625790 alt 81840 relative_alt 20 vx 1 vy 0 vz 7 hdg 31751  Len 36
10/19/2016 2:02:59 PM FE 1C 9F  1  1 21 mavlink_global_position_int_t time_boot_ms 121184 lat 334677321 lon -887625790 alt 81870 relative_alt 40 vx -3 vy 4 vz 8 hdg 31750  Len 36
10/19/2016 2:03:00 PM FE 1C BB  1  1 21 mavlink_global_position_int_t time_boot_ms 121984 lat 334677322 lon -887625790 alt 81860 relative_alt 30 vx 0 vy 2 vz -3 hdg 31750  Len 36
10/19/2016 2:03:00 PM FE 1C D7  1  1 21 mavlink_global_position_int_t time_boot_ms 122584 lat 334677323 lon -887625791 alt 81860 relative_alt 30 vx 2 vy -2 vz 3 hdg 31749  Len 36
10/19/2016 2:03:00 PM FE 1C F3  1  1 21 mavlink_global_position_int_t time_boot_ms 123184 lat 334677324 lon -887625793 alt 81820 relative_alt 10 vx -1 vy -1 vz 4 hdg 31744  Len 36
10/19/2016 2:03:01 PM FE 1C  F  1  1 21 mavlink_global_position_int_t time_boot_ms 123784 lat 334677324 lon -887625794 alt 81840 relative_alt 20 vx -1 vy 2 vz 9 hdg 31742  Len 36
10/19/2016 2:03:02 PM FE 1C 2B  1  1 21 mavlink_global_position_int_t time_boot_ms 124604 lat 334677324 lon -887625796 alt 81790 relative_alt 0 vx 3 vy -1 vz -2 hdg 31741  Len 36
10/19/2016 2:03:02 PM FE 1C 46  1  1 21 mavlink_global_position_int_t time_boot_ms 125183 lat 334677323 lon -887625798 alt 81770 relative_alt -10 vx -7 vy 0 vz 0 hdg 31740  Len 36
10/19/2016 2:03:03 PM FE 1C 62  1  1 21 mavlink_global_position_int_t time_boot_ms 125783 lat 334677322 lon -887625799 alt 81770 relative_alt 10 vx -1 vy 2 vz 1 hdg 31738  Len 36
10/19/2016 2:03:03 PM FE 1C 80  1  1 21 mavlink_global_position_int_t time_boot_ms 126384 lat 334677321 lon -887625799 alt 81750 relative_alt 0 vx -1 vy -1 vz -2 hdg 31737  Len 36
10/19/2016 2:03:04 PM FE 1C 9C  1  1 21 mavlink_global_position_int_t time_boot_ms 127183 lat 334677320 lon -887625800 alt 81730 relative_alt 20 vx 2 vy 1 vz 4 hdg 31735  Len 36
10/19/2016 2:03:05 PM FE 1C B8  1  1 21 mavlink_global_position_int_t time_boot_ms 127584 lat 334677320 lon -887625800 alt 81740 relative_alt 49 vx -2 vy -1 vz 4 hdg 31734  Len 36
10/19/2016 2:03:06 PM FE 1C D6  1  1 21 mavlink_global_position_int_t time_boot_ms 128183 lat 334677320 lon -887625801 alt 81710 relative_alt 30 vx 4 vy 0 vz 4 hdg 31733  Len 36
10/19/2016 2:03:06 PM FE 1C F2  1  1 21 mavlink_global_position_int_t time_boot_ms 128784 lat 334677321 lon -887625801 alt 81680 relative_alt 20 vx 3 vy 0 vz 7 hdg 31732  Len 36
10/19/2016 2:03:06 PM FE 1C 10  1  1 21 mavlink_global_position_int_t time_boot_ms 129384 lat 334677322 lon -887625801 alt 81660 relative_alt 20 vx 1 vy 1 vz 4 hdg 31731  Len 36
10/19/2016 2:03:07 PM FE 1C 2C  1  1 21 mavlink_global_position_int_t time_boot_ms 129983 lat 334677322 lon -887625801 alt 81630 relative_alt 20 vx 2 vy 1 vz 0 hdg 31730  Len 36
10/19/2016 2:03:08 PM FE 1C 4B  1  1 21 mavlink_global_position_int_t time_boot_ms 130583 lat 334677323 lon -887625801 alt 81600 relative_alt 20 vx 1 vy 0 vz 4 hdg 31728  Len 36
10/19/2016 2:03:08 PM FE 1C 69  1  1 21 mavlink_global_position_int_t time_boot_ms 130983 lat 334677324 lon -887625801 alt 81570 relative_alt 0 vx 0 vy -1 vz 3 hdg 31726  Len 36
10/19/2016 2:03:09 PM FE 1C 88  1  1 21 mavlink_global_position_int_t time_boot_ms 131584 lat 334677326 lon -887625801 alt 81570 relative_alt 30 vx -6 vy -2 vz 1 hdg 31724  Len 36
10/19/2016 2:03:10 PM FE 1C A6  1  1 21 mavlink_global_position_int_t time_boot_ms 131984 lat 334677326 lon -887625802 alt 81550 relative_alt 30 vx 0 vy -1 vz 4 hdg 31722  Len 36
10/19/2016 2:03:10 PM FE 1C C5  1  1 21 mavlink_global_position_int_t time_boot_ms 132604 lat 334677327 lon -887625803 alt 81530 relative_alt 30 vx 1 vy 2 vz 6 hdg 31721  Len 36
10/19/2016 2:03:11 PM FE 1C E3  1  1 21 mavlink_global_position_int_t time_boot_ms 132983 lat 334677326 lon -887625803 alt 81570 relative_alt 60 vx 0 vy 1 vz 4 hdg 31718  Len 36
10/19/2016 2:03:11 PM FE 1C  2  1  1 21 mavlink_global_position_int_t time_boot_ms 133584 lat 334677326 lon -887625803 alt 81570 relative_alt 49 vx 3 vy 1 vz 3 hdg 31716  Len 36
10/19/2016 2:03:12 PM FE 1C 1D  1  1 21 mavlink_global_position_int_t time_boot_ms 134204 lat 334677325 lon -887625803 alt 81540 relative_alt 40 vx -4 vy 2 vz 4 hdg 31714  Len 36
10/19/2016 2:03:13 PM FE 1C 39  1  1 21 mavlink_global_position_int_t time_boot_ms 134784 lat 334677323 lon -887625804 alt 81530 relative_alt 40 vx -2 vy 2 vz 4 hdg 31713  Len 36
10/19/2016 2:03:13 PM FE 1C 55  1  1 21 mavlink_global_position_int_t time_boot_ms 135383 lat 334677323 lon -887625805 alt 81540 relative_alt 30 vx -2 vy -1 vz 6 hdg 31710  Len 36
10/19/2016 2:03:13 PM FE 1C 71  1  1 21 mavlink_global_position_int_t time_boot_ms 135983 lat 334677323 lon -887625805 alt 81520 relative_alt -10 vx 4 vy 0 vz 3 hdg 31707  Len 36
10/19/2016 2:03:14 PM FE 1C 90  1  1 21 mavlink_global_position_int_t time_boot_ms 136584 lat 334677325 lon -887625805 alt 81530 relative_alt -10 vx 3 vy 1 vz -1 hdg 31704  Len 36
10/19/2016 2:03:15 PM FE 1C AB  1  1 21 mavlink_global_position_int_t time_boot_ms 137383 lat 334677327 lon -887625806 alt 81480 relative_alt -20 vx -1 vy 0 vz 3 hdg 31703  Len 36
10/19/2016 2:03:15 PM FE 1C C7  1  1 21 mavlink_global_position_int_t time_boot_ms 137983 lat 334677329 lon -887625806 alt 81490 relative_alt -10 vx -1 vy -4 vz 1 hdg 31699  Len 36
10/19/2016 2:03:16 PM FE 1C E3  1  1 21 mavlink_global_position_int_t time_boot_ms 138582 lat 334677330 lon -887625807 alt 81490 relative_alt -20 vx -4 vy 0 vz 8 hdg 31696  Len 36
10/19/2016 2:03:16 PM FE 1C FE  1  1 21 mavlink_global_position_int_t time_boot_ms 139204 lat 334677331 lon -887625808 alt 81530 relative_alt 10 vx 3 vy -1 vz 9 hdg 31694  Len 36
10/19/2016 2:03:17 PM FE 1C 1D  1  1 21 mavlink_global_position_int_t time_boot_ms 139784 lat 334677332 lon -887625809 alt 81530 relative_alt 0 vx 0 vy 0 vz 7 hdg 31691  Len 36
10/19/2016 2:03:17 PM FE 1C 38  1  1 21 mavlink_global_position_int_t time_boot_ms 140383 lat 334677332 lon -887625810 alt 81530 relative_alt 20 vx 2 vy 2 vz 11 hdg 31688  Len 36
10/19/2016 2:03:18 PM FE 1C 54  1  1 21 mavlink_global_position_int_t time_boot_ms 140984 lat 334677332 lon -887625810 alt 81530 relative_alt 30 vx -2 vy -1 vz 2 hdg 31688  Len 36
10/19/2016 2:03:19 PM FE 1C 73  1  1 21 mavlink_global_position_int_t time_boot_ms 141584 lat 334677331 lon -887625811 alt 81510 relative_alt 30 vx -4 vy -3 vz 3 hdg 31686  Len 36
10/19/2016 2:03:19 PM FE 1C 8E  1  1 21 mavlink_global_position_int_t time_boot_ms 142184 lat 334677330 lon -887625812 alt 81480 relative_alt 10 vx 4 vy 0 vz 9 hdg 31685  Len 36
10/19/2016 2:03:20 PM FE 1C AD  1  1 21 mavlink_global_position_int_t time_boot_ms 142784 lat 334677330 lon -887625813 alt 81440 relative_alt 0 vx 2 vy 0 vz 7 hdg 31683  Len 36
10/19/2016 2:03:20 PM FE 1C CB  1  1 21 mavlink_global_position_int_t time_boot_ms 143183 lat 334677330 lon -887625813 alt 81440 relative_alt 10 vx -2 vy 0 vz 4 hdg 31681  Len 36
10/19/2016 2:03:21 PM FE 1C EA  1  1 21 mavlink_global_position_int_t time_boot_ms 143804 lat 334677330 lon -887625814 alt 81400 relative_alt 0 vx -4 vy 2 vz -2 hdg 31680  Len 36
10/19/2016 2:03:22 PM FE 1C  8  1  1 21 mavlink_global_position_int_t time_boot_ms 144184 lat 334677329 lon -887625814 alt 81380 relative_alt 10 vx 1 vy 3 vz 4 hdg 31679  Len 36
10/19/2016 2:03:22 PM FE 1C 27  1  1 21 mavlink_global_position_int_t time_boot_ms 144804 lat 334677328 lon -887625814 alt 81380 relative_alt 20 vx -2 vy 0 vz 4 hdg 31676  Len 36
10/19/2016 2:03:23 PM FE 1C 48  1  1 21 mavlink_global_position_int_t time_boot_ms 145204 lat 334677327 lon -887625815 alt 81360 relative_alt 70 vx 2 vy 0 vz 9 hdg 31673  Len 36
10/19/2016 2:03:23 PM FE 1C 64  1  1 21 mavlink_global_position_int_t time_boot_ms 145784 lat 334677326 lon -887625816 alt 81270 relative_alt 30 vx -3 vy -1 vz 6 hdg 31672  Len 36
10/19/2016 2:03:24 PM FE 1C 7F  1  1 21 mavlink_global_position_int_t time_boot_ms 146384 lat 334677323 lon -887625818 alt 81200 relative_alt 10 vx -1 vy 3 vz 3 hdg 31670  Len 36
10/19/2016 2:03:24 PM FE 1C 9B  1  1 21 mavlink_global_position_int_t time_boot_ms 147004 lat 334677319 lon -887625820 alt 81150 relative_alt -10 vx -2 vy 0 vz 4 hdg 31667  Len 36
10/19/2016 2:03:25 PM FE 1C BA  1  1 21 mavlink_global_position_int_t time_boot_ms 147604 lat 334677316 lon -887625822 alt 81180 relative_alt 30 vx 1 vy -1 vz 7 hdg 31665  Len 36
10/19/2016 2:03:25 PM FE 1C D5  1  1 21 mavlink_global_position_int_t time_boot_ms 148182 lat 334677314 lon -887625825 alt 81130 relative_alt 20 vx 1 vy -2 vz 6 hdg 31664  Len 36
10/19/2016 2:03:26 PM FE 1C F1  1  1 21 mavlink_global_position_int_t time_boot_ms 148984 lat 334677312 lon -887625828 alt 81110 relative_alt 60 vx 0 vy -3 vz 2 hdg 31662  Len 36
10/19/2016 2:03:27 PM FE 1C  D  1  1 21 mavlink_global_position_int_t time_boot_ms 149583 lat 334677310 lon -887625831 alt 81040 relative_alt 20 vx 1 vy 2 vz 6 hdg 31660  Len 36
10/19/2016 2:03:27 PM FE 1C 28  1  1 21 mavlink_global_position_int_t time_boot_ms 150182 lat 334677310 lon -887625833 alt 81000 relative_alt 60 vx -4 vy 0 vz 9 hdg 31658  Len 36
10/19/2016 2:03:28 PM FE 1C 44  1  1 21 mavlink_global_position_int_t time_boot_ms 150804 lat 334677308 lon -887625836 alt 80940 relative_alt 70 vx 0 vy 2 vz 4 hdg 31657  Len 36
10/19/2016 2:03:29 PM FE 1C 62  1  1 21 mavlink_global_position_int_t time_boot_ms 151384 lat 334677307 lon -887625837 alt 80820 relative_alt 20 vx 1 vy 2 vz 6 hdg 31655  Len 36
10/19/2016 2:03:29 PM FE 1C 7E  1  1 21 mavlink_global_position_int_t time_boot_ms 152004 lat 334677306 lon -887625838 alt 80780 relative_alt 30 vx -2 vy 0 vz 9 hdg 31655  Len 36
10/19/2016 2:03:30 PM FE 1C 9A  1  1 21 mavlink_global_position_int_t time_boot_ms 152603 lat 334677306 lon -887625841 alt 80760 relative_alt 30 vx 1 vy 0 vz 4 hdg 31651  Len 36
10/19/2016 2:03:30 PM FE 1C B8  1  1 21 mavlink_global_position_int_t time_boot_ms 153204 lat 334677307 lon -887625844 alt 80730 relative_alt 20 vx -3 vy 2 vz 7 hdg 31650  Len 36
10/19/2016 2:03:31 PM FE 1C D7  1  1 21 mavlink_global_position_int_t time_boot_ms 153804 lat 334677306 lon -887625846 alt 80690 relative_alt 10 vx 0 vy 0 vz 14 hdg 31650  Len 36
10/19/2016 2:03:32 PM FE 1C F5  1  1 21 mavlink_global_position_int_t time_boot_ms 154203 lat 334677306 lon -887625848 alt 80680 relative_alt 10 vx 0 vy -3 vz 6 hdg 31650  Len 36
10/19/2016 2:03:32 PM FE 1C 14  1  1 21 mavlink_global_position_int_t time_boot_ms 154804 lat 334677307 lon -887625850 alt 80680 relative_alt 30 vx -4 vy 0 vz 2 hdg 31650  Len 36
10/19/2016 2:03:33 PM FE 1C 32  1  1 21 mavlink_global_position_int_t time_boot_ms 155204 lat 334677306 lon -887625852 alt 80670 relative_alt 70 vx -2 vy 0 vz 1 hdg 31649  Len 36
10/19/2016 2:03:33 PM FE 1C 51  1  1 21 mavlink_global_position_int_t time_boot_ms 155804 lat 334677305 lon -887625853 alt 80600 relative_alt 30 vx -3 vy -2 vz 8 hdg 31648  Len 36
10/19/2016 2:03:34 PM FE 1C 6F  1  1 21 mavlink_global_position_int_t time_boot_ms 156204 lat 334677304 lon -887625854 alt 80600 relative_alt 60 vx 4 vy 2 vz 7 hdg 31649  Len 36
10/19/2016 2:03:34 PM FE 1C 8E  1  1 21 mavlink_global_position_int_t time_boot_ms 156804 lat 334677303 lon -887625855 alt 80590 relative_alt 60 vx 3 vy 3 vz 13 hdg 31648  Len 36
10/19/2016 2:03:35 PM FE 1C AC  1  1 21 mavlink_global_position_int_t time_boot_ms 157404 lat 334677304 lon -887625856 alt 80560 relative_alt 40 vx -8 vy 0 vz 11 hdg 31646  Len 36
10/19/2016 2:03:35 PM FE 1C CB  1  1 21 mavlink_global_position_int_t time_boot_ms 157804 lat 334677303 lon -887625856 alt 80540 relative_alt 30 vx -1 vy -2 vz 6 hdg 31645  Len 36
10/19/2016 2:03:36 PM FE 1C E6  1  1 21 mavlink_global_position_int_t time_boot_ms 158404 lat 334677303 lon -887625856 alt 80550 relative_alt 20 vx 4 vy -3 vz 12 hdg 31643  Len 36
10/19/2016 2:03:36 PM FE 1C  5  1  1 21 mavlink_global_position_int_t time_boot_ms 159004 lat 334677302 lon -887625858 alt 80590 relative_alt 40 vx 0 vy 0 vz 11 hdg 31642  Len 36
10/19/2016 2:03:37 PM FE 1C 25  1  1 21 mavlink_global_position_int_t time_boot_ms 159604 lat 334677302 lon -887625859 alt 80560 relative_alt 40 vx 9 vy 2 vz 4 hdg 31641  Len 36
10/19/2016 2:03:38 PM FE 1C 40  1  1 21 mavlink_global_position_int_t time_boot_ms 160004 lat 334677303 lon -887625860 alt 80550 relative_alt 40 vx -1 vy -2 vz 7 hdg 31642  Len 36
10/19/2016 2:03:38 PM FE 1C 5F  1  1 21 mavlink_global_position_int_t time_boot_ms 160604 lat 334677304 lon -887625861 alt 80530 relative_alt 30 vx 1 vy 1 vz 4 hdg 31641  Len 36
10/19/2016 2:03:39 PM FE 1C 7A  1  1 21 mavlink_global_position_int_t time_boot_ms 161204 lat 334677304 lon -887625861 alt 80500 relative_alt 20 vx -2 vy -1 vz 4 hdg 31639  Len 36
10/19/2016 2:03:39 PM FE 1C 96  1  1 21 mavlink_global_position_int_t time_boot_ms 161804 lat 334677303 lon -887625862 alt 80460 relative_alt 10 vx 4 vy 2 vz 9 hdg 31638  Len 36
10/19/2016 2:03:40 PM FE 1C B4  1  1 21 mavlink_global_position_int_t time_boot_ms 162383 lat 334677304 lon -887625861 alt 80410 relative_alt 0 vx 2 vy 2 vz 7 hdg 31637  Len 36
10/19/2016 2:03:40 PM FE 1C D0  1  1 21 mavlink_global_position_int_t time_boot_ms 163004 lat 334677303 lon -887625860 alt 80410 relative_alt 30 vx 3 vy 1 vz 4 hdg 31636  Len 36
10/19/2016 2:03:41 PM FE 1C EC  1  1 21 mavlink_global_position_int_t time_boot_ms 163604 lat 334677305 lon -887625861 alt 80340 relative_alt 10 vx -4 vy 2 vz 4 hdg 31636  Len 36
10/19/2016 2:03:41 PM FE 1C  7  1  1 21 mavlink_global_position_int_t time_boot_ms 164204 lat 334677306 lon -887625862 alt 80300 relative_alt 20 vx 4 vy 0 vz 4 hdg 31634  Len 36
10/19/2016 2:03:42 PM FE 1C 23  1  1 21 mavlink_global_position_int_t time_boot_ms 164804 lat 334677308 lon -887625865 alt 80270 relative_alt 30 vx 2 vy 1 vz 1 hdg 31633  Len 36
10/19/2016 2:03:43 PM FE 1C 41  1  1 21 mavlink_global_position_int_t time_boot_ms 165404 lat 334677310 lon -887625867 alt 80260 relative_alt 20 vx -1 vy 0 vz 3 hdg 31632  Len 36
10/19/2016 2:03:43 PM FE 1C 5D  1  1 21 mavlink_global_position_int_t time_boot_ms 166004 lat 334677310 lon -887625870 alt 80230 relative_alt 30 vx 1 vy -1 vz 0 hdg 31632  Len 36
10/19/2016 2:03:44 PM FE 1C 79  1  1 21 mavlink_global_position_int_t time_boot_ms 166584 lat 334677312 lon -887625871 alt 80190 relative_alt 40 vx 2 vy 1 vz 7 hdg 31632  Len 36
10/19/2016 2:03:44 PM FE 1C 97  1  1 21 mavlink_global_position_int_t time_boot_ms 167204 lat 334677312 lon -887625873 alt 80170 relative_alt 49 vx 3 vy 2 vz 2 hdg 31632  Len 36
10/19/2016 2:03:45 PM FE 1C B6  1  1 21 mavlink_global_position_int_t time_boot_ms 167804 lat 334677314 lon -887625874 alt 80120 relative_alt 40 vx 0 vy 0 vz 4 hdg 31632  Len 36
10/19/2016 2:03:46 PM FE 1C D4  1  1 21 mavlink_global_position_int_t time_boot_ms 168404 lat 334677314 lon -887625875 alt 80080 relative_alt 30 vx -4 vy -1 vz 4 hdg 31632  Len 36
10/19/2016 2:03:46 PM FE 1C F0  1  1 21 mavlink_global_position_int_t time_boot_ms 168804 lat 334677315 lon -887625875 alt 80050 relative_alt 30 vx 1 vy 1 vz 2 hdg 31633  Len 36
10/19/2016 2:03:47 PM FE 1C  E  1  1 21 mavlink_global_position_int_t time_boot_ms 169404 lat 334677316 lon -887625874 alt 80040 relative_alt 0 vx 4 vy 1 vz 4 hdg 31632  Len 36
10/19/2016 2:03:47 PM FE 1C 2D  1  1 21 mavlink_global_position_int_t time_boot_ms 169982 lat 334677317 lon -887625871 alt 80030 relative_alt 0 vx -1 vy -3 vz 2 hdg 31633  Len 36
10/19/2016 2:03:48 PM FE 1C 48  1  1 21 mavlink_global_position_int_t time_boot_ms 170404 lat 334677316 lon -887625868 alt 80030 relative_alt 20 vx -4 vy 2 vz -4 hdg 31633  Len 36
10/19/2016 2:03:48 PM FE 1C 67  1  1 21 mavlink_global_position_int_t time_boot_ms 171004 lat 334677318 lon -887625866 alt 79960 relative_alt 0 vx -1 vy 0 vz 6 hdg 31633  Len 36
10/19/2016 2:03:49 PM FE 1C 83  1  1 21 mavlink_global_position_int_t time_boot_ms 171604 lat 334677320 lon -887625864 alt 79980 relative_alt 30 vx -1 vy 1 vz 2 hdg 31631  Len 36
10/19/2016 2:03:49 PM FE 1C A1  1  1 21 mavlink_global_position_int_t time_boot_ms 172204 lat 334677320 lon -887625863 alt 79980 relative_alt 30 vx 1 vy 0 vz 1 hdg 31631  Len 36
10/19/2016 2:03:50 PM FE 1C C0  1  1 21 mavlink_global_position_int_t time_boot_ms 172604 lat 334677320 lon -887625862 alt 79990 relative_alt 49 vx -2 vy 0 vz 0 hdg 31629  Len 36
10/19/2016 2:03:50 PM FE 1C DB  1  1 21 mavlink_global_position_int_t time_boot_ms 173204 lat 334677321 lon -887625862 alt 79980 relative_alt 49 vx 1 vy 2 vz -2 hdg 31628  Len 36
10/19/2016 2:03:51 PM FE 1C FA  1  1 21 mavlink_global_position_int_t time_boot_ms 173804 lat 334677321 lon -887625861 alt 79940 relative_alt 10 vx -3 vy -2 vz 9 hdg 31628  Len 36
10/19/2016 2:03:51 PM FE 1C 18  1  1 21 mavlink_global_position_int_t time_boot_ms 174404 lat 334677321 lon -887625861 alt 79970 relative_alt 10 vx -1 vy 3 vz 9 hdg 31629  Len 36
10/19/2016 2:03:52 PM FE 1C 37  1  1 21 mavlink_global_position_int_t time_boot_ms 174804 lat 334677321 lon -887625860 alt 80000 relative_alt 49 vx 4 vy 0 vz 3 hdg 31627  Len 36
10/19/2016 2:03:53 PM FE 1C 53  1  1 21 mavlink_global_position_int_t time_boot_ms 175404 lat 334677320 lon -887625859 alt 79930 relative_alt -10 vx 0 vy 0 vz 7 hdg 31629  Len 36
10/19/2016 2:03:53 PM FE 1C 72  1  1 21 mavlink_global_position_int_t time_boot_ms 176004 lat 334677321 lon -887625859 alt 79970 relative_alt 30 vx -4 vy -1 vz 3 hdg 31628  Len 36
10/19/2016 2:03:54 PM FE 1C 90  1  1 21 mavlink_global_position_int_t time_boot_ms 176404 lat 334677318 lon -887625859 alt 79960 relative_alt 10 vx 4 vy -2 vz 8 hdg 31627  Len 36
10/19/2016 2:03:55 PM FE 1C AC  1  1 21 mavlink_global_position_int_t time_boot_ms 177004 lat 334677317 lon -887625859 alt 79990 relative_alt 10 vx 2 vy 2 vz 4 hdg 31628  Len 36
10/19/2016 2:03:55 PM FE 1C C8  1  1 21 mavlink_global_position_int_t time_boot_ms 177583 lat 334677316 lon -887625858 alt 79980 relative_alt 10 vx -3 vy 1 vz 6 hdg 31628  Len 36
10/19/2016 2:03:56 PM FE 1C E6  1  1 21 mavlink_global_position_int_t time_boot_ms 178204 lat 334677313 lon -887625857 alt 79980 relative_alt 0 vx -3 vy 1 vz 4 hdg 31628  Len 36
10/19/2016 2:03:57 PM FE 1C  2  1  1 21 mavlink_global_position_int_t time_boot_ms 178804 lat 334677312 lon -887625856 alt 80000 relative_alt 10 vx 3 vy 1 vz 14 hdg 31628  Len 36
10/19/2016 2:03:57 PM FE 1C 1E  1  1 21 mavlink_global_position_int_t time_boot_ms 179404 lat 334677311 lon -887625855 alt 80000 relative_alt 20 vx -1 vy -1 vz 4 hdg 31629  Len 36
10/19/2016 2:03:58 PM FE 1C 3A  1  1 21 mavlink_global_position_int_t time_boot_ms 180203 lat 334677311 lon -887625855 alt 79990 relative_alt 20 vx 4 vy 2 vz 8 hdg 31628  Len 36
10/19/2016 2:03:58 PM FE 1C 59  1  1 21 mavlink_global_position_int_t time_boot_ms 180804 lat 334677311 lon -887625855 alt 79990 relative_alt 20 vx -2 vy 1 vz 4 hdg 31628  Len 36
10/19/2016 2:03:59 PM FE 1C 74  1  1 21 mavlink_global_position_int_t time_boot_ms 181404 lat 334677312 lon -887625855 alt 79970 relative_alt 0 vx 3 vy 4 vz 6 hdg 31629  Len 36
10/19/2016 2:03:59 PM FE 1C 90  1  1 21 mavlink_global_position_int_t time_boot_ms 182004 lat 334677314 lon -887625854 alt 79980 relative_alt 10 vx -4 vy 2 vz 2 hdg 31630  Len 36
10/19/2016 2:04:00 PM FE 1C AC  1  1 21 mavlink_global_position_int_t time_boot_ms 182804 lat 334677316 lon -887625854 alt 79960 relative_alt 20 vx -2 vy -1 vz 0 hdg 31632  Len 36
10/19/2016 2:04:01 PM FE 1C C7  1  1 21 mavlink_global_position_int_t time_boot_ms 183404 lat 334677316 lon -887625854 alt 79940 relative_alt 10 vx 0 vy 1 vz 3 hdg 31634  Len 36
10/19/2016 2:04:01 PM FE 1C E3  1  1 21 mavlink_global_position_int_t time_boot_ms 184004 lat 334677317 lon -887625855 alt 79940 relative_alt 20 vx 3 vy -1 vz 2 hdg 31636  Len 36
10/19/2016 2:04:02 PM FE 1C FF  1  1 21 mavlink_global_position_int_t time_boot_ms 184604 lat 334677317 lon -887625856 alt 79950 relative_alt 30 vx 4 vy -4 vz -3 hdg 31634  Len 36
10/19/2016 2:04:02 PM FE 1C 1D  1  1 21 mavlink_global_position_int_t time_boot_ms 185204 lat 334677319 lon -887625857 alt 79950 relative_alt 40 vx 1 vy 1 vz 8 hdg 31634  Len 36
10/19/2016 2:04:03 PM FE 1C 39  1  1 21 mavlink_global_position_int_t time_boot_ms 185784 lat 334677320 lon -887625858 alt 79930 relative_alt 0 vx -1 vy 1 vz 7 hdg 31636  Len 36
10/19/2016 2:04:04 PM FE 1C 54  1  1 21 mavlink_global_position_int_t time_boot_ms 186404 lat 334677318 lon -887625858 alt 79940 relative_alt 20 vx 0 vy 3 vz 14 hdg 31637  Len 36
10/19/2016 2:04:04 PM FE 1C 70  1  1 21 mavlink_global_position_int_t time_boot_ms 187183 lat 334677318 lon -887625857 alt 79920 relative_alt 10 vx -1 vy 0 vz 0 hdg 31639  Len 36
10/19/2016 2:04:05 PM FE 1C 90  1  1 21 mavlink_global_position_int_t time_boot_ms 187604 lat 334677317 lon -887625856 alt 79930 relative_alt 10 vx -2 vy -1 vz 2 hdg 31639  Len 36
10/19/2016 2:04:05 PM FE 1C AE  1  1 21 mavlink_global_position_int_t time_boot_ms 188204 lat 334677316 lon -887625855 alt 79940 relative_alt 10 vx 0 vy -1 vz 7 hdg 31639  Len 36
10/19/2016 2:04:06 PM FE 1C CB  1  1 21 mavlink_global_position_int_t time_boot_ms 188804 lat 334677314 lon -887625854 alt 79970 relative_alt 20 vx -6 vy -2 vz 4 hdg 31640  Len 36
10/19/2016 2:04:06 PM FE 1C EA  1  1 21 mavlink_global_position_int_t time_boot_ms 189404 lat 334677314 lon -887625852 alt 79970 relative_alt 20 vx 2 vy 0 vz -1 hdg 31641  Len 36
10/19/2016 2:04:07 PM FE 1C  A  1  1 21 mavlink_global_position_int_t time_boot_ms 189804 lat 334677316 lon -887625851 alt 79990 relative_alt 40 vx 0 vy -1 vz 1 hdg 31641  Len 36
10/19/2016 2:04:08 PM FE 1C 25  1  1 21 mavlink_global_position_int_t time_boot_ms 190404 lat 334677316 lon -887625850 alt 79960 relative_alt -20 vx 0 vy -2 vz 11 hdg 31641  Len 36
10/19/2016 2:04:08 PM FE 1C 44  1  1 21 mavlink_global_position_int_t time_boot_ms 191004 lat 334677317 lon -887625849 alt 80010 relative_alt 10 vx -3 vy 0 vz 4 hdg 31640  Len 36
10/19/2016 2:04:09 PM FE 1C 62  1  1 21 mavlink_global_position_int_t time_boot_ms 191384 lat 334677317 lon -887625849 alt 80030 relative_alt 10 vx 3 vy 0 vz 6 hdg 31642  Len 36
10/19/2016 2:04:09 PM FE 1C 81  1  1 21 mavlink_global_position_int_t time_boot_ms 192004 lat 334677317 lon -887625848 alt 80020 relative_alt 10 vx -1 vy 3 vz 4 hdg 31640  Len 36
10/19/2016 2:04:10 PM FE 1C 9F  1  1 21 mavlink_global_position_int_t time_boot_ms 192404 lat 334677318 lon -887625847 alt 80050 relative_alt 30 vx -1 vy 2 vz 3 hdg 31640  Len 36
10/19/2016 2:04:10 PM FE 1C BE  1  1 21 mavlink_global_position_int_t time_boot_ms 193004 lat 334677320 lon -887625847 alt 80050 relative_alt 40 vx 4 vy 1 vz 11 hdg 31639  Len 36
10/19/2016 2:04:11 PM FE 1C DC  1  1 21 mavlink_global_position_int_t time_boot_ms 193404 lat 334677321 lon -887625846 alt 80010 relative_alt 0 vx 2 vy 1 vz 7 hdg 31639  Len 36
10/19/2016 2:04:11 PM FE 1C FB  1  1 21 mavlink_global_position_int_t time_boot_ms 194004 lat 334677322 lon -887625846 alt 80020 relative_alt 10 vx 1 vy 1 vz 9 hdg 31639  Len 36
10/19/2016 2:04:12 PM FE 1C 19  1  1 21 mavlink_global_position_int_t time_boot_ms 194404 lat 334677322 lon -887625847 alt 80020 relative_alt 10 vx 4 vy 0 vz 8 hdg 31640  Len 36
10/19/2016 2:04:12 PM FE 1C 38  1  1 21 mavlink_global_position_int_t time_boot_ms 195004 lat 334677322 lon -887625850 alt 80010 relative_alt 10 vx -2 vy 2 vz 2 hdg 31637  Len 36
10/19/2016 2:04:13 PM FE 1C 57  1  1 21 mavlink_global_position_int_t time_boot_ms 195404 lat 334677320 lon -887625853 alt 80030 relative_alt 40 vx 4 vy -1 vz 6 hdg 31636  Len 36
10/19/2016 2:04:14 PM FE 1C 76  1  1 21 mavlink_global_position_int_t time_boot_ms 196004 lat 334677316 lon -887625855 alt 80000 relative_alt 40 vx -1 vy 2 vz 7 hdg 31636  Len 36
10/19/2016 2:04:14 PM FE 1C 95  1  1 21 mavlink_global_position_int_t time_boot_ms 196604 lat 334677311 lon -887625858 alt 79970 relative_alt 20 vx 6 vy 2 vz 2 hdg 31637  Len 36
10/19/2016 2:04:15 PM FE 1C B0  1  1 21 mavlink_global_position_int_t time_boot_ms 197204 lat 334677307 lon -887625860 alt 79990 relative_alt 20 vx -2 vy -2 vz 14 hdg 31638  Len 36
10/19/2016 2:04:15 PM FE 1C CF  1  1 21 mavlink_global_position_int_t time_boot_ms 197804 lat 334677303 lon -887625863 alt 80020 relative_alt 0 vx 1 vy 0 vz 9 hdg 31639  Len 36
10/19/2016 2:04:16 PM FE 1C EA  1  1 21 mavlink_global_position_int_t time_boot_ms 198404 lat 334677299 lon -887625865 alt 80090 relative_alt 10 vx 0 vy 4 vz 4 hdg 31641  Len 36
10/19/2016 2:04:16 PM FE 1C  6  1  1 21 mavlink_global_position_int_t time_boot_ms 198804 lat 334677295 lon -887625866 alt 80110 relative_alt 20 vx -2 vy 2 vz 0 hdg 31642  Len 36
10/19/2016 2:04:17 PM FE 1C 25  1  1 21 mavlink_global_position_int_t time_boot_ms 199404 lat 334677294 lon -887625866 alt 80150 relative_alt 20 vx 2 vy 1 vz 9 hdg 31643  Len 36
10/19/2016 2:04:17 PM FE 1C 41  1  1 21 mavlink_global_position_int_t time_boot_ms 200004 lat 334677293 lon -887625865 alt 80230 relative_alt 20 vx -3 vy 2 vz 11 hdg 31644  Len 36
10/19/2016 2:04:18 PM FE 1C 60  1  1 21 mavlink_global_position_int_t time_boot_ms 200604 lat 334677292 lon -887625865 alt 80270 relative_alt 49 vx -1 vy 0 vz 1 hdg 31644  Len 36
10/19/2016 2:04:18 PM FE 1C 7B  1  1 21 mavlink_global_position_int_t time_boot_ms 201222 lat 334677290 lon -887625865 alt 80260 relative_alt 60 vx 1 vy 1 vz 4 hdg 31645  Len 36
10/19/2016 2:04:19 PM FE 1C 97  1  1 21 mavlink_global_position_int_t time_boot_ms 201804 lat 334677290 lon -887625865 alt 80230 relative_alt 40 vx 3 vy 0 vz 4 hdg 31646  Len 36
10/19/2016 2:04:19 PM FE 1C B5  1  1 21 mavlink_global_position_int_t time_boot_ms 202404 lat 334677290 lon -887625865 alt 80260 relative_alt 49 vx -1 vy 0 vz 4 hdg 31648  Len 36
10/19/2016 2:04:20 PM FE 1C D4  1  1 21 mavlink_global_position_int_t time_boot_ms 202804 lat 334677286 lon -887625865 alt 80260 relative_alt 20 vx 1 vy -3 vz 3 hdg 31648  Len 36
10/19/2016 2:04:20 PM FE 1C F3  1  1 21 mavlink_global_position_int_t time_boot_ms 203404 lat 334677284 lon -887625865 alt 80320 relative_alt 49 vx 0 vy 0 vz 9 hdg 31648  Len 36
10/19/2016 2:04:21 PM FE 1C 12  1  1 21 mavlink_global_position_int_t time_boot_ms 203804 lat 334677281 lon -887625866 alt 80340 relative_alt 40 vx 0 vy 1 vz 9 hdg 31649  Len 36
10/19/2016 2:04:22 PM FE 1C 30  1  1 21 mavlink_global_position_int_t time_boot_ms 204404 lat 334677279 lon -887625867 alt 80310 relative_alt 10 vx 2 vy 1 vz 12 hdg 31651  Len 36
10/19/2016 2:04:22 PM FE 1C 4F  1  1 21 mavlink_global_position_int_t time_boot_ms 204823 lat 334677277 lon -887625869 alt 80300 relative_alt 10 vx -6 vy 1 vz 3 hdg 31650  Len 36
10/19/2016 2:04:23 PM FE 1C 6D  1  1 21 mavlink_global_position_int_t time_boot_ms 205404 lat 334677276 lon -887625870 alt 80290 relative_alt 10 vx -1 vy 1 vz 9 hdg 31649  Len 36
10/19/2016 2:04:24 PM FE 1C 8C  1  1 21 mavlink_global_position_int_t time_boot_ms 206004 lat 334677275 lon -887625872 alt 80260 relative_alt 20 vx 3 vy -1 vz 1 hdg 31648  Len 36
10/19/2016 2:04:24 PM FE 1C AA  1  1 21 mavlink_global_position_int_t time_boot_ms 206424 lat 334677275 lon -887625873 alt 80270 relative_alt 20 vx 0 vy 2 vz 3 hdg 31650  Len 36
10/19/2016 2:04:25 PM FE 1C C7  1  1 21 mavlink_global_position_int_t time_boot_ms 207004 lat 334677276 lon -887625874 alt 80270 relative_alt 20 vx 0 vy 2 vz 1 hdg 31650  Len 36
10/19/2016 2:04:25 PM FE 1C E3  1  1 21 mavlink_global_position_int_t time_boot_ms 207604 lat 334677278 lon -887625876 alt 80250 relative_alt 40 vx 4 vy -2 vz 1 hdg 31649  Len 36
10/19/2016 2:04:26 PM FE 1C FE  1  1 21 mavlink_global_position_int_t time_boot_ms 208404 lat 334677280 lon -887625876 alt 80170 relative_alt 20 vx 4 vy 0 vz 3 hdg 31651  Len 36
10/19/2016 2:04:26 PM FE 1C 1A  1  1 21 mavlink_global_position_int_t time_boot_ms 209023 lat 334677279 lon -887625876 alt 80160 relative_alt 40 vx 6 vy -2 vz 8 hdg 31651  Len 36
10/19/2016 2:04:27 PM FE 1C 36  1  1 21 mavlink_global_position_int_t time_boot_ms 209804 lat 334677279 lon -887625876 alt 80140 relative_alt 10 vx 1 vy 2 vz 3 hdg 31652  Len 36
10/19/2016 2:04:27 PM FE 1C 51  1  1 21 mavlink_global_position_int_t time_boot_ms 210403 lat 334677279 lon -887625876 alt 80180 relative_alt 20 vx 3 vy 4 vz 2 hdg 31651  Len 36
10/19/2016 2:04:28 PM FE 1C 6D  1  1 21 mavlink_global_position_int_t time_boot_ms 211224 lat 334677278 lon -887625875 alt 80180 relative_alt 40 vx 1 vy -1 vz -1 hdg 31653  Len 36
10/19/2016 2:04:29 PM FE 1C 89  1  1 21 mavlink_global_position_int_t time_boot_ms 211824 lat 334677275 lon -887625875 alt 80160 relative_alt 20 vx -1 vy 2 vz 4 hdg 31653  Len 36
10/19/2016 2:04:30 PM FE 1C A4  1  1 21 mavlink_global_position_int_t time_boot_ms 212404 lat 334677276 lon -887625874 alt 80170 relative_alt 30 vx 2 vy 1 vz 3 hdg 31653  Len 36
10/19/2016 2:04:30 PM FE 1C C0  1  1 21 mavlink_global_position_int_t time_boot_ms 213204 lat 334677277 lon -887625874 alt 80220 relative_alt 20 vx 3 vy -1 vz 4 hdg 31654  Len 36
10/19/2016 2:04:31 PM FE 1C DC  1  1 21 mavlink_global_position_int_t time_boot_ms 213804 lat 334677279 lon -887625875 alt 80300 relative_alt 40 vx 2 vy 2 vz 4 hdg 31654  Len 36
10/19/2016 2:04:31 PM FE 1C F7  1  1 21 mavlink_global_position_int_t time_boot_ms 214404 lat 334677281 lon -887625875 alt 80320 relative_alt 70 vx -2 vy 1 vz 9 hdg 31656  Len 36
10/19/2016 2:04:32 PM FE 1C 16  1  1 21 mavlink_global_position_int_t time_boot_ms 215004 lat 334677281 lon -887625875 alt 80370 relative_alt 80 vx -1 vy 0 vz -1 hdg 31657  Len 36
10/19/2016 2:04:33 PM FE 1C 34  1  1 21 mavlink_global_position_int_t time_boot_ms 215423 lat 334677279 lon -887625874 alt 80360 relative_alt 40 vx -1 vy 2 vz 6 hdg 31659  Len 36
10/19/2016 2:04:33 PM FE 1C 50  1  1 21 mavlink_global_position_int_t time_boot_ms 216004 lat 334677277 lon -887625874 alt 80370 relative_alt 40 vx -2 vy 1 vz 11 hdg 31659  Len 36
10/19/2016 2:04:34 PM FE 1C 6E  1  1 21 mavlink_global_position_int_t time_boot_ms 216404 lat 334677277 lon -887625874 alt 80390 relative_alt 60 vx 2 vy 1 vz 3 hdg 31661  Len 36
10/19/2016 2:04:34 PM FE 1C 8D  1  1 21 mavlink_global_position_int_t time_boot_ms 217004 lat 334677277 lon -887625875 alt 80390 relative_alt 70 vx -1 vy 3 vz 3 hdg 31662  Len 36
10/19/2016 2:04:35 PM FE 1C AE  1  1 21 mavlink_global_position_int_t time_boot_ms 217423 lat 334677277 lon -887625875 alt 80390 relative_alt 70 vx 3 vy 3 vz 4 hdg 31663  Len 36
10/19/2016 2:04:35 PM FE 1C CD  1  1 21 mavlink_global_position_int_t time_boot_ms 218004 lat 334677279 lon -887625874 alt 80370 relative_alt 40 vx 3 vy 1 vz 3 hdg 31664  Len 36
10/19/2016 2:04:36 PM FE 1C EB  1  1 21 mavlink_global_position_int_t time_boot_ms 218423 lat 334677280 lon -887625873 alt 80390 relative_alt 49 vx 0 vy 2 vz 0 hdg 31665  Len 36
10/19/2016 2:04:37 PM FE 1C  A  1  1 21 mavlink_global_position_int_t time_boot_ms 219004 lat 334677279 lon -887625872 alt 80410 relative_alt 49 vx -3 vy -2 vz 1 hdg 31667  Len 36
10/19/2016 2:04:37 PM FE 1C 26  1  1 21 mavlink_global_position_int_t time_boot_ms 219604 lat 334677278 lon -887625871 alt 80390 relative_alt 30 vx 2 vy 3 vz 3 hdg 31668  Len 36
10/19/2016 2:04:38 PM FE 1C 44  1  1 21 mavlink_global_position_int_t time_boot_ms 220204 lat 334677279 lon -887625870 alt 80360 relative_alt 30 vx 3 vy -3 vz 2 hdg 31668  Len 36
10/19/2016 2:04:38 PM FE 1C 60  1  1 21 mavlink_global_position_int_t time_boot_ms 220804 lat 334677281 lon -887625872 alt 80320 relative_alt 20 vx -4 vy -3 vz -2 hdg 31668  Len 36
10/19/2016 2:04:39 PM FE 1C 7E  1  1 21 mavlink_global_position_int_t time_boot_ms 221404 lat 334677282 lon -887625876 alt 80290 relative_alt 10 vx 0 vy 3 vz 0 hdg 31667  Len 36
10/19/2016 2:04:39 PM FE 1C 9A  1  1 21 mavlink_global_position_int_t time_boot_ms 221804 lat 334677284 lon -887625880 alt 80250 relative_alt 10 vx -1 vy 0 vz 2 hdg 31668  Len 36
10/19/2016 2:04:40 PM FE 1C B5  1  1 21 mavlink_global_position_int_t time_boot_ms 222404 lat 334677285 lon -887625884 alt 80220 relative_alt 10 vx 1 vy 2 vz 3 hdg 31668  Len 36
10/19/2016 2:04:40 PM FE 1C D4  1  1 21 mavlink_global_position_int_t time_boot_ms 223004 lat 334677285 lon -887625888 alt 80220 relative_alt 40 vx 0 vy 1 vz 3 hdg 31670  Len 36
10/19/2016 2:04:41 PM FE 1C F0  1  1 21 mavlink_global_position_int_t time_boot_ms 223604 lat 334677287 lon -887625893 alt 80200 relative_alt 20 vx 0 vy 0 vz 4 hdg 31670  Len 36
10/19/2016 2:04:42 PM FE 1C  E  1  1 21 mavlink_global_position_int_t time_boot_ms 224204 lat 334677288 lon -887625896 alt 80170 relative_alt 30 vx 3 vy 1 vz 4 hdg 31672  Len 36
10/19/2016 2:04:42 PM FE 1C 2A  1  1 21 mavlink_global_position_int_t time_boot_ms 224804 lat 334677289 lon -887625898 alt 80140 relative_alt 60 vx 1 vy -2 vz 7 hdg 31673  Len 36
10/19/2016 2:04:43 PM FE 1C 48  1  1 21 mavlink_global_position_int_t time_boot_ms 225404 lat 334677290 lon -887625899 alt 80070 relative_alt 20 vx -1 vy -2 vz -3 hdg 31675  Len 36
10/19/2016 2:04:43 PM FE 1C 64  1  1 21 mavlink_global_position_int_t time_boot_ms 226004 lat 334677292 lon -887625900 alt 80040 relative_alt 20 vx 3 vy 0 vz 4 hdg 31679  Len 36
10/19/2016 2:04:44 PM FE 1C 80  1  1 21 mavlink_global_position_int_t time_boot_ms 226604 lat 334677292 lon -887625902 alt 79980 relative_alt 20 vx 0 vy 2 vz 4 hdg 31681  Len 36
10/19/2016 2:04:44 PM FE 1C 9E  1  1 21 mavlink_global_position_int_t time_boot_ms 227204 lat 334677292 lon -887625905 alt 79940 relative_alt 20 vx -1 vy 4 vz -3 hdg 31681  Len 36
10/19/2016 2:04:45 PM FE 1C BA  1  1 21 mavlink_global_position_int_t time_boot_ms 227604 lat 334677291 lon -887625906 alt 79910 relative_alt 10 vx -3 vy -1 vz 4 hdg 31682  Len 36
10/19/2016 2:04:45 PM FE 1C D8  1  1 21 mavlink_global_position_int_t time_boot_ms 228223 lat 334677286 lon -887625906 alt 79940 relative_alt 20 vx 7 vy -3 vz 4 hdg 31683  Len 36
10/19/2016 2:04:46 PM FE 1C F4  1  1 21 mavlink_global_position_int_t time_boot_ms 228823 lat 334677281 lon -887625906 alt 79960 relative_alt 30 vx -4 vy 0 vz -4 hdg 31684  Len 36
10/19/2016 2:04:46 PM FE 1C 12  1  1 21 mavlink_global_position_int_t time_boot_ms 229404 lat 334677276 lon -887625905 alt 79930 relative_alt 30 vx -2 vy 0 vz 4 hdg 31683  Len 36
10/19/2016 2:04:47 PM FE 1C 31  1  1 21 mavlink_global_position_int_t time_boot_ms 230004 lat 334677272 lon -887625905 alt 79890 relative_alt 20 vx -2 vy -1 vz 7 hdg 31683  Len 36
10/19/2016 2:04:48 PM FE 1C 4C  1  1 21 mavlink_global_position_int_t time_boot_ms 230404 lat 334677269 lon -887625904 alt 79920 relative_alt 0 vx -1 vy 0 vz 4 hdg 31684  Len 36
10/19/2016 2:04:48 PM FE 1C 6B  1  1 21 mavlink_global_position_int_t time_boot_ms 231004 lat 334677268 lon -887625903 alt 80030 relative_alt 60 vx -1 vy -4 vz 11 hdg 31684  Len 36
10/19/2016 2:04:49 PM FE 1C 8A  1  1 21 mavlink_global_position_int_t time_boot_ms 231624 lat 334677266 lon -887625902 alt 80040 relative_alt 49 vx -8 vy 3 vz -9 hdg 31684  Len 36
10/19/2016 2:04:49 PM FE 1C A8  1  1 21 mavlink_global_position_int_t time_boot_ms 232023 lat 334677265 lon -887625901 alt 79980 relative_alt 30 vx -2 vy 0 vz 8 hdg 31686  Len 36
10/19/2016 2:04:50 PM FE 1C C7  1  1 21 mavlink_global_position_int_t time_boot_ms 232604 lat 334677265 lon -887625899 alt 79950 relative_alt 30 vx -4 vy 1 vz 1 hdg 31687  Len 36
10/19/2016 2:04:50 PM FE 1C E5  1  1 21 mavlink_global_position_int_t time_boot_ms 233004 lat 334677265 lon -887625898 alt 79950 relative_alt 20 vx -4 vy 2 vz -1 hdg 31686  Len 36
10/19/2016 2:04:51 PM FE 1C  4  1  1 21 mavlink_global_position_int_t time_boot_ms 233604 lat 334677264 lon -887625896 alt 79980 relative_alt -30 vx -1 vy 3 vz 1 hdg 31687  Len 36
10/19/2016 2:04:52 PM FE 1C 22  1  1 21 mavlink_global_position_int_t time_boot_ms 234004 lat 334677264 lon -887625893 alt 80030 relative_alt 10 vx 2 vy 3 vz 7 hdg 31687  Len 36
10/19/2016 2:04:52 PM FE 1C 41  1  1 21 mavlink_global_position_int_t time_boot_ms 234622 lat 334677263 lon -887625891 alt 80050 relative_alt 10 vx -3 vy 1 vz 6 hdg 31688  Len 36
10/19/2016 2:04:53 PM FE 1C 63  1  1 21 mavlink_global_position_int_t time_boot_ms 235004 lat 334677263 lon -887625887 alt 80090 relative_alt 0 vx 0 vy 4 vz 7 hdg 31687  Len 36
10/19/2016 2:04:53 PM FE 1C 7F  1  1 21 mavlink_global_position_int_t time_boot_ms 235604 lat 334677264 lon -887625883 alt 80120 relative_alt -30 vx -2 vy 0 vz 11 hdg 31689  Len 36
10/19/2016 2:04:54 PM FE 1C 9A  1  1 21 mavlink_global_position_int_t time_boot_ms 236204 lat 334677263 lon -887625879 alt 80180 relative_alt -20 vx 0 vy 3 vz 12 hdg 31689  Len 36
10/19/2016 2:04:54 PM FE 1C B9  1  1 21 mavlink_global_position_int_t time_boot_ms 236804 lat 334677264 lon -887625874 alt 80260 relative_alt 20 vx -12 vy 4 vz 2 hdg 31687  Len 36
10/19/2016 2:04:55 PM FE 1C D4  1  1 21 mavlink_global_position_int_t time_boot_ms 237404 lat 334677262 lon -887625871 alt 80310 relative_alt 49 vx -1 vy 2 vz 4 hdg 31687  Len 36
10/19/2016 2:04:55 PM FE 1C F0  1  1 21 mavlink_global_position_int_t time_boot_ms 238004 lat 334677261 lon -887625869 alt 80340 relative_alt 40 vx -3 vy 4 vz 3 hdg 31687  Len 36
10/19/2016 2:04:56 PM FE 1C  C  1  1 21 mavlink_global_position_int_t time_boot_ms 238604 lat 334677260 lon -887625867 alt 80390 relative_alt 40 vx -8 vy 2 vz 8 hdg 31686  Len 36
10/19/2016 2:04:56 PM FE 1C 28  1  1 21 mavlink_global_position_int_t time_boot_ms 239404 lat 334677258 lon -887625866 alt 80400 relative_alt 40 vx -4 vy 0 vz 2 hdg 31684  Len 36
10/19/2016 2:04:57 PM FE 1C 47  1  1 21 mavlink_global_position_int_t time_boot_ms 240004 lat 334677256 lon -887625866 alt 80370 relative_alt 20 vx 0 vy 1 vz 4 hdg 31684  Len 36
10/19/2016 2:04:57 PM FE 1C 63  1  1 21 mavlink_global_position_int_t time_boot_ms 240404 lat 334677256 lon -887625867 alt 80390 relative_alt 40 vx 1 vy -2 vz 9 hdg 31683  Len 36
10/19/2016 2:04:58 PM FE 1C 81  1  1 21 mavlink_global_position_int_t time_boot_ms 241004 lat 334677254 lon -887625868 alt 80410 relative_alt 49 vx 1 vy -3 vz 0 hdg 31683  Len 36
10/19/2016 2:04:59 PM FE 1C A0  1  1 21 mavlink_global_position_int_t time_boot_ms 241604 lat 334677255 lon -887625870 alt 80420 relative_alt 70 vx -3 vy -4 vz 9 hdg 31682  Len 36
10/19/2016 2:05:00 PM FE 1C BB  1  1 21 mavlink_global_position_int_t time_boot_ms 242204 lat 334677257 lon -887625871 alt 80350 relative_alt 40 vx -9 vy 2 vz 3 hdg 31682  Len 36
10/19/2016 2:05:00 PM FE 1C DA  1  1 21 mavlink_global_position_int_t time_boot_ms 242804 lat 334677259 lon -887625874 alt 80190 relative_alt 40 vx -6 vy -1 vz 4 hdg 31681  Len 36
10/19/2016 2:05:01 PM FE 1C F9  1  1 21 mavlink_global_position_int_t time_boot_ms 243204 lat 334677261 lon -887625877 alt 80150 relative_alt 70 vx -2 vy 0 vz -4 hdg 31681  Len 36
10/19/2016 2:05:02 PM FE 1C 15  1  1 21 mavlink_global_position_int_t time_boot_ms 243804 lat 334677262 lon -887625880 alt 80090 relative_alt 110 vx 1 vy -1 vz 4 hdg 31680  Len 36
10/19/2016 2:05:02 PM FE 1C 33  1  1 21 mavlink_global_position_int_t time_boot_ms 244404 lat 334677265 lon -887625882 alt 79980 relative_alt 49 vx 2 vy -1 vz 19 hdg 31679  Len 36
10/19/2016 2:05:03 PM FE 1C 4F  1  1 21 mavlink_global_position_int_t time_boot_ms 245004 lat 334677267 lon -887625885 alt 79950 relative_alt 49 vx -1 vy -1 vz -3 hdg 31678  Len 36
10/19/2016 2:05:03 PM FE 1C 6B  1  1 21 mavlink_global_position_int_t time_boot_ms 245604 lat 334677265 lon -887625889 alt 79920 relative_alt 40 vx 3 vy -2 vz 3 hdg 31677  Len 36
10/19/2016 2:05:04 PM FE 1C 86  1  1 21 mavlink_global_position_int_t time_boot_ms 246404 lat 334677263 lon -887625892 alt 79920 relative_alt 60 vx -1 vy 6 vz 14 hdg 31677  Len 36
10/19/2016 2:05:04 PM FE 1C A2  1  1 21 mavlink_global_position_int_t time_boot_ms 247224 lat 334677261 lon -887625896 alt 79770 relative_alt 40 vx -2 vy 2 vz 1 hdg 31676  Len 36
10/19/2016 2:05:05 PM FE 1C BE  1  1 21 mavlink_global_position_int_t time_boot_ms 247823 lat 334677260 lon -887625898 alt 79800 relative_alt 70 vx -6 vy 4 vz 8 hdg 31643  Len 36
10/19/2016 2:05:06 PM FE 1C D9  1  1 21 mavlink_global_position_int_t time_boot_ms 248404 lat 334677260 lon -887625898 alt 79800 relative_alt 49 vx 1 vy 7 vz 19 hdg 31630  Len 36
10/19/2016 2:05:06 PM FE 1C F5  1  1 21 mavlink_global_position_int_t time_boot_ms 249223 lat 334677258 lon -887625897 alt 79780 relative_alt 49 vx 0 vy -2 vz 3 hdg 31610  Len 36
10/19/2016 2:05:07 PM FE 1C 11  1  1 21 mavlink_global_position_int_t time_boot_ms 249824 lat 334677259 lon -887625899 alt 79710 relative_alt 60 vx 2 vy 4 vz -1 hdg 31591  Len 36
10/19/2016 2:05:08 PM FE 1C 2C  1  1 21 mavlink_global_position_int_t time_boot_ms 250404 lat 334677256 lon -887625901 alt 79570 relative_alt 120 vx -2 vy -4 vz 0 hdg 31482  Len 36
10/19/2016 2:05:08 PM FE 1C 48  1  1 21 mavlink_global_position_int_t time_boot_ms 251004 lat 334677258 lon -887625908 alt 79350 relative_alt 130 vx -2 vy -1 vz -9 hdg 31445  Len 36
10/19/2016 2:05:09 PM FE 1C 68  1  1 21 mavlink_global_position_int_t time_boot_ms 251604 lat 334677260 lon -887625914 alt 79120 relative_alt 89 vx -8 vy 7 vz 4 hdg 31452  Len 36
10/19/2016 2:05:09 PM FE 1C 83  1  1 21 mavlink_global_position_int_t time_boot_ms 252224 lat 334677262 lon -887625922 alt 78930 relative_alt 80 vx 8 vy 1 vz 7 hdg 31465  Len 36
10/19/2016 2:05:10 PM FE 1C A2  1  1 21 mavlink_global_position_int_t time_boot_ms 252824 lat 334677263 lon -887625927 alt 78720 relative_alt 10 vx 2 vy 4 vz -1 hdg 31465  Len 36
10/19/2016 2:05:10 PM FE 1C C0  1  1 21 mavlink_global_position_int_t time_boot_ms 253404 lat 334677262 lon -887625931 alt 78630 relative_alt 0 vx -3 vy 2 vz 8 hdg 31463  Len 36
10/19/2016 2:05:11 PM FE 1C DF  1  1 21 mavlink_global_position_int_t time_boot_ms 253824 lat 334677260 lon -887625934 alt 78640 relative_alt 49 vx 0 vy -4 vz 4 hdg 31462  Len 36
10/19/2016 2:05:11 PM FE 1C FD  1  1 21 mavlink_global_position_int_t time_boot_ms 254404 lat 334677260 lon -887625939 alt 78550 relative_alt 20 vx 2 vy 4 vz 3 hdg 31461  Len 36
10/19/2016 2:05:12 PM FE 1C 1C  1  1 21 mavlink_global_position_int_t time_boot_ms 254804 lat 334677259 lon -887625942 alt 78450 relative_alt 49 vx 2 vy -4 vz 3 hdg 31461  Len 36
10/19/2016 2:05:13 PM FE 1C 3A  1  1 21 mavlink_global_position_int_t time_boot_ms 255404 lat 334677258 lon -887625946 alt 78320 relative_alt 20 vx -1 vy 8 vz 11 hdg 31476  Len 36
